[
  {"name":"Aquatica","location":{"lat":22.562575,"lng":88.46522}, "id":0},
  {"name":"Nicco Park","location":{"lat":22.57126,"lng":88.420556},"id":1},
  {"name":"Eco Park","location":{"lat":22.603134, "lng":88.467143},"id":2},
  {"name":"Md Ali Park","location":{"lat":22.577189,"lng":88.360737},"id":3},
  {"name":"Millenium Park","location":{"lat":22.572821,"lng":88.344549},"id":4},
  {"name":"Victoria Memorial","location":{"lat":22.544808,"lng":88.342558},"id":5},
  {"name":"Science City","location":{"lat":22.539056,"lng":88.395825},"id":6},
  {"name":"Birla Planetarium","location":{"lat":22.545514,"lng":88.347316},"id":7},
  {"name":"Alipore Zoo", "location":{"lat":22.537011,"lng":88.33167},"id":8},
  {"name":"Eden Garden","location":{"lat":22.564608, "lng":88.343265},"id":9},
  {"name":"Nakhoda Mosque","location":{"lat":22.577708,"lng":88.356129}, "id":10},
]
